[
  {
    "id": "1100015",
    "name": "Alta Floresta D'Oeste",
    "state": "RO",
    "state_name": "Rondônia",
    "microregion": "Cacoal",
    "mesoregion": "Leste Rondoniense",
    "region": "Norte",
    "latitude": -12.542005263157895,
    "longitude": -62.371925000000005
  },
  {
    "id": "1100023",
    "name": "Ariquemes",
    "state": "RO",
    "state_name": "Rondônia",
    "microregion": "Ariquemes",
    "mesoregion": "Leste Rondoniense",
    "region": "Norte",
    "latitude": -9.91075,
    "longitude": -62.917134090909094
  },
  {
    "id": "1100031",
    "name": "Cabixi",
    "state": "RO",
    "state_name": "Rondônia",
    "microregion": "Colorado do Oeste",
    "mesoregion": "Leste Rondoniense",
    "region": "Norte",
    "latitude": -13.522212,
    "longitude": -60.658199999999994
  },
  {
    "id": "1100049",
    "name": "Cacoal",
    "state": "RO",
    "state_name": "Rondônia",
    "microregion": "Cacoal",
    "mesoregion": "Leste Rondoniense",
    "region": "Norte",
    "latitude": -11.425122222222221,
    "longitude": -61.4065
  },
  {
    "id": "1100056",
    "name": "Cerejeiras",
    "state": "RO",
    "state_name": "Rondônia",
    "microregion": "Colorado do Oeste",
    "mesoregion": "Leste Rondoniense",
    "region": "Norte",
    "latitude": -13.193653999999999,
    "longitude": -61.326578
  },
  {
    "id": "1100064",
    "name": "Colorado do Oeste",
    "state": "RO",
    "state_name": "Rondônia",
    "microregion": "Colorado do Oeste",
    "mesoregion": "Leste Rondoniense",
    "region": "Norte",
    "latitude": -13.121670833333333,
    "longitude": -60.580983333333336
  },
  {
    "id": "1100072",
    "name": "Corumbiara",
    "state": "RO",
    "state_name": "Rondônia",
    "microregion": "Colorado do Oeste",
    "mesoregion": "Leste Rondoniense",
    "region": "Norte",
    "latitude": -12.89655471698113,
    "longitude": -61.07277735849056
  },
  {
    "id": "1100080",
    "name": "Costa Marques",
    "state": "RO",
    "state_name": "Rondônia",
    "microregion": "Guajará-Mirim",
    "mesoregion": "Madeira-Guaporé",
    "region": "Norte",
    "latitude": -12.12326835443038,
    "longitude": -64.0419835443038
  },
  {
    "id": "1100098",
    "name": "Espigão D'Oeste",
    "state": "RO",
    "state_name": "Rondônia",
    "microregion": "Cacoal",
    "mesoregion": "Leste Rondoniense",
    "region": "Norte",
    "latitude": -11.422691428571428,
    "longitude": -60.73812857142857
  },
  {
    "id": "1100106",
    "name": "Guajará-Mirim",
    "state": "RO",
    "state_name": "Rondônia",
    "microregion": "Guajará-Mirim",
    "mesoregion": "Madeira-Guaporé",
    "region": "Norte",
    "latitude": -11.324381751824818,
    "longitude": -64.57258832116788
  },
  {
    "id": "1100114",
    "name": "Jaru",
    "state": "RO",
    "state_name": "Rondônia",
    "microregion": "Ji-Paraná",
    "mesoregion": "Leste Rondoniense",
    "region": "Norte",
    "latitude": -10.613613333333333,
    "longitude": -62.64955333333333
  },
  {
    "id": "1100122",
    "name": "Ji-Paraná",
    "state": "RO",
    "state_name": "Rondônia",
    "microregion": "Ji-Paraná",
    "mesoregion": "Leste Rondoniense",
    "region": "Norte",
    "latitude": -10.3898875,
    "longitude": -61.764477777777785
  },
  {
    "id": "1100130",
    "name": "Machadinho D'Oeste",
    "state": "RO",
    "state_name": "Rondônia",
    "microregion": "Ariquemes",
    "mesoregion": "Leste Rondoniense",
    "region": "Norte",
    "latitude": -9.216275757575758,
    "longitude": -62.053295959595964
  },
  {
    "id": "1100148",
    "name": "Nova Brasilândia D'Oeste",
    "state": "RO",
    "state_name": "Rondônia",
    "microregion": "Alvorada D'Oeste",
    "mesoregion": "Leste Rondoniense",
    "region": "Norte",
    "latitude": -11.594945714285714,
    "longitude": -62.22926571428572
  },
  {
    "id": "1100155",
    "name": "Ouro Preto do Oeste",
    "state": "RO",
    "state_name": "Rondônia",
    "microregion": "Ji-Paraná",
    "mesoregion": "Leste Rondoniense",
    "region": "Norte",
    "latitude": -10.498815789473683,
    "longitude": -62.066747368421055
  },
  {
    "id": "1100189",
    "name": "Pimenta Bueno",
    "state": "RO",
    "state_name": "Rondônia",
    "microregion": "Vilhena",
    "mesoregion": "Leste Rondoniense",
    "region": "Norte",
    "latitude": -11.787963636363635,
    "longitude": -60.86322727272727
  },
  {
    "id": "1100205",
    "name": "Porto Velho",
    "state": "RO",
    "state_name": "Rondônia",
    "microregion": "Porto Velho",
    "mesoregion": "Madeira-Guaporé",
    "region": "Norte",
    "latitude": -9.12870170212766,
    "longitude": -64.39647489361703
  },
  {
    "id": "1100254",
    "name": "Presidente Médici",
    "state": "RO",
    "state_name": "Rondônia",
    "microregion": "Ji-Paraná",
    "mesoregion": "Leste Rondoniense",
    "region": "Norte",
    "latitude": -11.181641666666668,
    "longitude": -61.963150000000006
  },
  {
    "id": "1100262",
    "name": "Rio Crespo",
    "state": "RO",
    "state_name": "Rondônia",
    "microregion": "Ariquemes",
    "mesoregion": "Leste Rondoniense",
    "region": "Norte",
    "latitude": -9.68937619047619,
    "longitude": -62.75145238095239
  },
  {
    "id": "1100288",
    "name": "Rolim de Moura",
    "state": "RO",
    "state_name": "Rondônia",
    "microregion": "Cacoal",
    "mesoregion": "Leste Rondoniense",
    "region": "Norte",
    "latitude": -11.75192380952381,
    "longitude": -61.81632857142857
  },
  {
    "id": "1100296",
    "name": "Santa Luzia D'Oeste",
    "state": "RO",
    "state_name": "Rondônia",
    "microregion": "Cacoal",
    "mesoregion": "Leste Rondoniense",
    "region": "Norte",
    "latitude": -12.079973684210525,
    "longitude": -61.75594210526316
  },
  {
    "id": "1100304",
    "name": "Vilhena",
    "state": "RO",
    "state_name": "Rondônia",
    "microregion": "Vilhena",
    "mesoregion": "Leste Rondoniense",
    "region": "Norte",
    "latitude": -12.050562393162393,
    "longitude": -60.26507264957265
  },
  {
    "id": "1100320",
    "name": "São Miguel do Guaporé",
    "state": "RO",
    "state_name": "Rondônia",
    "microregion": "Alvorada D'Oeste",
    "mesoregion": "Leste Rondoniense",
    "region": "Norte",
    "latitude": -11.605920408163266,
    "longitude": -63.06850306122449
  },
  {
    "id": "1100338",
    "name": "Nova Mamoré",
    "state": "RO",
    "state_name": "Rondônia",
    "microregion": "Porto Velho",
    "mesoregion": "Madeira-Guaporé",
    "region": "Norte",
    "latitude": -10.46941,
    "longitude": -64.5692142857143
  },
  {
    "id": "1100346",
    "name": "Alvorada D'Oeste",
    "state": "RO",
    "state_name": "Rondônia",
    "microregion": "Alvorada D'Oeste",
    "mesoregion": "Leste Rondoniense",
    "region": "Norte",
    "latitude": -11.289327586206896,
    "longitude": -62.60870689655172
  },
  {
    "id": "1100379",
    "name": "Alto Alegre dos Parecis",
    "state": "RO",
    "state_name": "Rondônia",
    "microregion": "Cacoal",
    "mesoregion": "Leste Rondoniense",
    "region": "Norte",
    "latitude": -12.6991,
    "longitude": -61.94950163934426
  },
  {
    "id": "1100403",
    "name": "Alto Paraíso",
    "state": "RO",
    "state_name": "Rondônia",
    "microregion": "Ariquemes",
    "mesoregion": "Leste Rondoniense",
    "region": "Norte",
    "latitude": -9.682545945945947,
    "longitude": -63.455216216216215
  },
  {
    "id": "1100452",
    "name": "Buritis",
    "state": "RO",
    "state_name": "Rondônia",
    "microregion": "Porto Velho",
    "mesoregion": "Madeira-Guaporé",
    "region": "Norte",
    "latitude": -10.094888372093022,
    "longitude": -63.973609302325585
  },
  {
    "id": "1100502",
    "name": "Novo Horizonte do Oeste",
    "state": "RO",
    "state_name": "Rondônia",
    "microregion": "Cacoal",
    "mesoregion": "Leste Rondoniense",
    "region": "Norte",
    "latitude": -11.6972,
    "longitude": -62.069500000000005
  },
  {
    "id": "1100601",
    "name": "Cacaulândia",
    "state": "RO",
    "state_name": "Rondônia",
    "microregion": "Ariquemes",
    "mesoregion": "Leste Rondoniense",
    "region": "Norte",
    "latitude": -10.344241666666667,
    "longitude": -63.07423333333333
  },
  {
    "id": "1100700",
    "name": "Campo Novo de Rondônia",
    "state": "RO",
    "state_name": "Rondônia",
    "microregion": "Porto Velho",
    "mesoregion": "Madeira-Guaporé",
    "region": "Norte",
    "latitude": -10.480949056603775,
    "longitude": -63.796371698113205
  },
  {
    "id": "1100809",
    "name": "Candeias do Jamari",
    "state": "RO",
    "state_name": "Rondônia",
    "microregion": "Porto Velho",
    "mesoregion": "Madeira-Guaporé",
    "region": "Norte",
    "latitude": -8.960440298507462,
    "longitude": -63.36875074626865
  },
  {
    "id": "1100908",
    "name": "Castanheiras",
    "state": "RO",
    "state_name": "Rondônia",
    "microregion": "Cacoal",
    "mesoregion": "Leste Rondoniense",
    "region": "Norte",
    "latitude": -11.469658823529413,
    "longitude": -61.88028235294117
  },
  {
    "id": "1100924",
    "name": "Chupinguaia",
    "state": "RO",
    "state_name": "Rondônia",
    "microregion": "Vilhena",
    "mesoregion": "Leste Rondoniense",
    "region": "Norte",
    "latitude": -12.647360377358492,
    "longitude": -60.91375283018868
  },
  {
    "id": "1100940",
    "name": "Cujubim",
    "state": "RO",
    "state_name": "Rondônia",
    "microregion": "Porto Velho",
    "mesoregion": "Madeira-Guaporé",
    "region": "Norte",
    "latitude": -9.019858974358973,
    "longitude": -62.52593846153846
  },
  {
    "id": "1101005",
    "name": "Governador Jorge Teixeira",
    "state": "RO",
    "state_name": "Rondônia",
    "microregion": "Ji-Paraná",
    "mesoregion": "Leste Rondoniense",
    "region": "Norte",
    "latitude": -10.808098,
    "longitude": -63.184352
  },
  {
    "id": "1101104",
    "name": "Itapuã do Oeste",
    "state": "RO",
    "state_name": "Rondônia",
    "microregion": "Porto Velho",
    "mesoregion": "Madeira-Guaporé",
    "region": "Norte",
    "latitude": -9.081986046511627,
    "longitude": -63.15197441860465
  },
  {
    "id": "1101203",
    "name": "Ministro Andreazza",
    "state": "RO",
    "state_name": "Rondônia",
    "microregion": "Cacoal",
    "mesoregion": "Leste Rondoniense",
    "region": "Norte",
    "latitude": -11.145038461538462,
    "longitude": -61.58366923076923
  },
  {
    "id": "1101302",
    "name": "Mirante da Serra",
    "state": "RO",
    "state_name": "Rondônia",
    "microregion": "Ji-Paraná",
    "mesoregion": "Leste Rondoniense",
    "region": "Norte",
    "latitude": -11.097576923076922,
    "longitude": -62.88552307692308
  },
  {
    "id": "1101401",
    "name": "Monte Negro",
    "state": "RO",
    "state_name": "Rondônia",
    "microregion": "Ariquemes",
    "mesoregion": "Leste Rondoniense",
    "region": "Norte",
    "latitude": -10.277473076923076,
    "longitude": -63.39379615384615
  },
  {
    "id": "1101435",
    "name": "Nova União",
    "state": "RO",
    "state_name": "Rondônia",
    "microregion": "Ji-Paraná",
    "mesoregion": "Leste Rondoniense",
    "region": "Norte",
    "latitude": -10.903225,
    "longitude": -62.5195625
  },
  {
    "id": "1101450",
    "name": "Parecis",
    "state": "RO",
    "state_name": "Rondônia",
    "microregion": "Vilhena",
    "mesoregion": "Leste Rondoniense",
    "region": "Norte",
    "latitude": -12.283437037037038,
    "longitude": -61.377233333333336
  },
  {
    "id": "1101468",
    "name": "Pimenteiras do Oeste",
    "state": "RO",
    "state_name": "Rondônia",
    "microregion": "Colorado do Oeste",
    "mesoregion": "Leste Rondoniense",
    "region": "Norte",
    "latitude": -13.168882524271845,
    "longitude": -61.516998058252426
  },
  {
    "id": "1101476",
    "name": "Primavera de Rondônia",
    "state": "RO",
    "state_name": "Rondônia",
    "microregion": "Vilhena",
    "mesoregion": "Leste Rondoniense",
    "region": "Norte",
    "latitude": -11.893447368421054,
    "longitude": -61.31348421052632
  },
  {
    "id": "1101484",
    "name": "São Felipe D'Oeste",
    "state": "RO",
    "state_name": "Rondônia",
    "microregion": "Vilhena",
    "mesoregion": "Leste Rondoniense",
    "region": "Norte",
    "latitude": -11.904242857142858,
    "longitude": -61.46933571428571
  },
  {
    "id": "1101492",
    "name": "São Francisco do Guaporé",
    "state": "RO",
    "state_name": "Rondônia",
    "microregion": "Guajará-Mirim",
    "mesoregion": "Madeira-Guaporé",
    "region": "Norte",
    "latitude": -12.395843157894737,
    "longitude": -63.19158842105263
  },
  {
    "id": "1101500",
    "name": "Seringueiras",
    "state": "RO",
    "state_name": "Rondônia",
    "microregion": "Alvorada D'Oeste",
    "mesoregion": "Leste Rondoniense",
    "region": "Norte",
    "latitude": -11.842181666666667,
    "longitude": -63.23883166666667
  },
  {
    "id": "1101559",
    "name": "Teixeirópolis",
    "state": "RO",
    "state_name": "Rondônia",
    "microregion": "Ji-Paraná",
    "mesoregion": "Leste Rondoniense",
    "region": "Norte",
    "latitude": -10.95431,
    "longitude": -62.272760000000005
  },
  {
    "id": "1101609",
    "name": "Theobroma",
    "state": "RO",
    "state_name": "Rondônia",
    "microregion": "Ji-Paraná",
    "mesoregion": "Leste Rondoniense",
    "region": "Norte",
    "latitude": -10.084868292682927,
    "longitude": -62.27673658536585
  },
  {
    "id": "1101708",
    "name": "Urupá",
    "state": "RO",
    "state_name": "Rondônia",
    "microregion": "Ji-Paraná",
    "mesoregion": "Leste Rondoniense",
    "region": "Norte",
    "latitude": -11.087355555555556,
    "longitude": -62.43032777777777
  },
  {
    "id": "1101757",
    "name": "Vale do Anari",
    "state": "RO",
    "state_name": "Rondônia",
    "microregion": "Ariquemes",
    "mesoregion": "Leste Rondoniense",
    "region": "Norte",
    "latitude": -9.708155555555557,
    "longitude": -61.93245
  },
  {
    "id": "1101807",
    "name": "Vale do Paraíso",
    "state": "RO",
    "state_name": "Rondônia",
    "microregion": "Ji-Paraná",
    "mesoregion": "Leste Rondoniense",
    "region": "Norte",
    "latitude": -10.291435294117647,
    "longitude": -62.09137058823529
  },
  {
    "id": "1200013",
    "name": "Acrelândia",
    "state": "AC",
    "state_name": "Acre",
    "microregion": "Rio Branco",
    "mesoregion": "Vale do Acre",
    "region": "Norte",
    "latitude": -10.010621739130436,
    "longitude": -66.94924347826087
  },
  {
    "id": "1200054",
    "name": "Assis Brasil",
    "state": "AC",
    "state_name": "Acre",
    "microregion": "Brasiléia",
    "mesoregion": "Vale do Acre",
    "region": "Norte",
    "latitude": -10.765979411764706,
    "longitude": -69.87472794117647
  },
  {
    "id": "1200104",
    "name": "Brasiléia",
    "state": "AC",
    "state_name": "Acre",
    "microregion": "Brasiléia",
    "mesoregion": "Vale do Acre",
    "region": "Norte",
    "latitude": -10.76881403508772,
    "longitude": -69.18302456140351
  },
  {
    "id": "1200138",
    "name": "Bujari",
    "state": "AC",
    "state_name": "Acre",
    "microregion": "Rio Branco",
    "mesoregion": "Vale do Acre",
    "region": "Norte",
    "latitude": -9.6290025,
    "longitude": -68.14327
  },
  {
    "id": "1200179",
    "name": "Capixaba",
    "state": "AC",
    "state_name": "Acre",
    "microregion": "Rio Branco",
    "mesoregion": "Vale do Acre",
    "region": "Norte",
    "latitude": -10.489805555555556,
    "longitude": -67.813225
  },
  {
    "id": "1200203",
    "name": "Cruzeiro do Sul",
    "state": "AC",
    "state_name": "Acre",
    "microregion": "Cruzeiro do Sul",
    "mesoregion": "Vale do Juruá",
    "region": "Norte",
    "latitude": -8.017147142857143,
    "longitude": -72.84472285714287
  },
  {
    "id": "1200252",
    "name": "Epitaciolândia",
    "state": "AC",
    "state_name": "Acre",
    "microregion": "Brasiléia",
    "mesoregion": "Vale do Acre",
    "region": "Norte",
    "latitude": -10.866524242424243,
    "longitude": -68.61276060606062
  },
  {
    "id": "1200302",
    "name": "Feijó",
    "state": "AC",
    "state_name": "Acre",
    "microregion": "Tarauacá",
    "mesoregion": "Vale do Juruá",
    "region": "Norte",
    "latitude": -9.03329316239316,
    "longitude": -70.9618905982906
  },
  {
    "id": "1200328",
    "name": "Jordão",
    "state": "AC",
    "state_name": "Acre",
    "microregion": "Tarauacá",
    "mesoregion": "Vale do Juruá",
    "region": "Norte",
    "latitude": -9.196446268656716,
    "longitude": -71.87418358208956
  },
  {
    "id": "1200336",
    "name": "Mâncio Lima",
    "state": "AC",
    "state_name": "Acre",
    "microregion": "Cruzeiro do Sul",
    "mesoregion": "Vale do Juruá",
    "region": "Norte",
    "latitude": -7.522108695652173,
    "longitude": -73.51763913043479
  },
  {
    "id": "1200344",
    "name": "Manoel Urbano",
    "state": "AC",
    "state_name": "Acre",
    "microregion": "Sena Madureira",
    "mesoregion": "Vale do Acre",
    "region": "Norte",
    "latitude": -9.36067052631579,
    "longitude": -69.86468105263158
  },
  {
    "id": "1200351",
    "name": "Marechal Thaumaturgo",
    "state": "AC",
    "state_name": "Acre",
    "microregion": "Cruzeiro do Sul",
    "mesoregion": "Vale do Juruá",
    "region": "Norte",
    "latitude": -9.071695238095238,
    "longitude": -72.63699841269842
  },
  {
    "id": "1200385",
    "name": "Plácido de Castro",
    "state": "AC",
    "state_name": "Acre",
    "microregion": "Rio Branco",
    "mesoregion": "Vale do Acre",
    "region": "Norte",
    "latitude": -10.298159459459459,
    "longitude": -67.35986216216216
  },
  {
    "id": "1200393",
    "name": "Porto Walter",
    "state": "AC",
    "state_name": "Acre",
    "microregion": "Cruzeiro do Sul",
    "mesoregion": "Vale do Juruá",
    "region": "Norte",
    "latitude": -8.509627777777778,
    "longitude": -72.7510925925926
  },
  {
    "id": "1200401",
    "name": "Rio Branco",
    "state": "AC",
    "state_name": "Acre",
    "microregion": "Rio Branco",
    "mesoregion": "Vale do Acre",
    "region": "Norte",
    "latitude": -10.053152688172043,
    "longitude": -68.27273010752688
  },
  {
    "id": "1200427",
    "name": "Rodrigues Alves",
    "state": "AC",
    "state_name": "Acre",
    "microregion": "Cruzeiro do Sul",
    "mesoregion": "Vale do Juruá",
    "region": "Norte",
    "latitude": -7.85145,
    "longitude": -73.22392391304348
  },
  {
    "id": "1200435",
    "name": "Santa Rosa do Purus",
    "state": "AC",
    "state_name": "Acre",
    "microregion": "Sena Madureira",
    "mesoregion": "Vale do Acre",
    "region": "Norte",
    "latitude": -9.501869047619047,
    "longitude": -70.44344166666667
  },
  {
    "id": "1200450",
    "name": "Senador Guiomard",
    "state": "AC",
    "state_name": "Acre",
    "microregion": "Rio Branco",
    "mesoregion": "Vale do Acre",
    "region": "Norte",
    "latitude": -10.003378947368422,
    "longitude": -67.47614210526316
  },
  {
    "id": "1200500",
    "name": "Sena Madureira",
    "state": "AC",
    "state_name": "Acre",
    "microregion": "Sena Madureira",
    "mesoregion": "Vale do Acre",
    "region": "Norte",
    "latitude": -9.837505102040817,
    "longitude": -69.4608918367347
  },
  {
    "id": "1200609",
    "name": "Tarauacá",
    "state": "AC",
    "state_name": "Acre",
    "microregion": "Tarauacá",
    "mesoregion": "Vale do Juruá",
    "region": "Norte",
    "latitude": -8.481348749999999,
    "longitude": -71.410105
  },
  {
    "id": "1200708",
    "name": "Xapuri",
    "state": "AC",
    "state_name": "Acre",
    "microregion": "Brasiléia",
    "mesoregion": "Vale do Acre",
    "region": "Norte",
    "latitude": -10.590871621621622,
    "longitude": -68.5292027027027
  },
  {
    "id": "1200807",
    "name": "Porto Acre",
    "state": "AC",
    "state_name": "Acre",
    "microregion": "Rio Branco",
    "mesoregion": "Vale do Acre",
    "region": "Norte",
    "latitude": -9.694474285714286,
    "longitude": -67.69404857142858
  },
  {
    "id": "1300029",
    "name": "Alvarães",
    "state": "AM",
    "state_name": "Amazonas",
    "microregion": "Tefé",
    "mesoregion": "Centro Amazonense",
    "region": "Norte",
    "latitude": -3.6990159420289856,
    "longitude": -65.3345188405797
  },
  {
    "id": "1300060",
    "name": "Amaturá",
    "state": "AM",
    "state_name": "Amazonas",
    "microregion": "Alto Solimões",
    "mesoregion": "Sudoeste Amazonense",
    "region": "Norte",
    "latitude": -3.388192,
    "longitude": -68.204512
  },
  {
    "id": "1300086",
    "name": "Anamã",
    "state": "AM",
    "state_name": "Amazonas",
    "microregion": "Coari",
    "mesoregion": "Centro Amazonense",
    "region": "Norte",
    "latitude": -3.4870674999999998,
    "longitude": -61.75584250000001
  },
  {
    "id": "1300102",
    "name": "Anori",
    "state": "AM",
    "state_name": "Amazonas",
    "microregion": "Coari",
    "mesoregion": "Centro Amazonense",
    "region": "Norte",
    "latitude": -4.21920752688172,
    "longitude": -62.17743978494624
  },
  {
    "id": "1300144",
    "name": "Apuí",
    "state": "AM",
    "state_name": "Amazonas",
    "microregion": "Madeira",
    "mesoregion": "Sul Amazonense",
    "region": "Norte",
    "latitude": -7.763545192307692,
    "longitude": -59.35894134615384
  },
  {
    "id": "1300201",
    "name": "Atalaia do Norte",
    "state": "AM",
    "state_name": "Amazonas",
    "microregion": "Alto Solimões",
    "mesoregion": "Sudoeste Amazonense",
    "region": "Norte",
    "latitude": -5.737578991596639,
    "longitude": -71.81558823529411
  },
  {
    "id": "1300300",
    "name": "Autazes",
    "state": "AM",
    "state_name": "Amazonas",
    "microregion": "Manaus",
    "mesoregion": "Centro Amazonense",
    "region": "Norte",
    "latitude": -3.8105481481481482,
    "longitude": -59.57286296296296
  },
  {
    "id": "1300409",
    "name": "Barcelos",
    "state": "AM",
    "state_name": "Amazonas",
    "microregion": "Rio Negro",
    "mesoregion": "Norte Amazonense",
    "region": "Norte",
    "latitude": -0.42850553935860053,
    "longitude": -63.526283673469386
  },
  {
    "id": "1300508",
    "name": "Barreirinha",
    "state": "AM",
    "state_name": "Amazonas",
    "microregion": "Parintins",
    "mesoregion": "Centro Amazonense",
    "region": "Norte",
    "latitude": -3.034469333333333,
    "longitude": -57.146015999999996
  },
  {
    "id": "1300607",
    "name": "Benjamin Constant",
    "state": "AM",
    "state_name": "Amazonas",
    "microregion": "Alto Solimões",
    "mesoregion": "Sudoeste Amazonense",
    "region": "Norte",
    "latitude": -5.560590845070422,
    "longitude": -70.33970633802817
  },
  {
    "id": "1300631",
    "name": "Beruri",
    "state": "AM",
    "state_name": "Amazonas",
    "microregion": "Coari",
    "mesoregion": "Centro Amazonense",
    "region": "Norte",
    "latitude": -4.447258888888889,
    "longitude": -61.85986111111111
  },
  {
    "id": "1300680",
    "name": "Boa Vista do Ramos",
    "state": "AM",
    "state_name": "Amazonas",
    "microregion": "Parintins",
    "mesoregion": "Centro Amazonense",
    "region": "Norte",
    "latitude": -3.152120833333333,
    "longitude": -57.655539583333336
  },
  {
    "id": "1300706",
    "name": "Boca do Acre",
    "state": "AM",
    "state_name": "Amazonas",
    "microregion": "Boca do Acre",
    "mesoregion": "Sul Amazonense",
    "region": "Norte",
    "latitude": -8.61834523809524,
    "longitude": -67.93036666666667
  },
  {
    "id": "1300805",
    "name": "Borba",
    "state": "AM",
    "state_name": "Amazonas",
    "microregion": "Madeira",
    "mesoregion": "Sul Amazonense",
    "region": "Norte",
    "latitude": -5.094727638190955,
    "longitude": -59.32860502512563
  },
  {
    "id": "1300839",
    "name": "Caapiranga",
    "state": "AM",
    "state_name": "Amazonas",
    "microregion": "Coari",
    "mesoregion": "Centro Amazonense",
    "region": "Norte",
    "latitude": -3.119120253164557,
    "longitude": -61.780324050632906
  },
  {
    "id": "1300904",
    "name": "Canutama",
    "state": "AM",
    "state_name": "Amazonas",
    "microregion": "Purus",
    "mesoregion": "Sul Amazonense",
    "region": "Norte",
    "latitude": -7.71181836734694,
    "longitude": -64.18690408163265
  },
  {
    "id": "1301001",
    "name": "Carauari",
    "state": "AM",
    "state_name": "Amazonas",
    "microregion": "Juruá",
    "mesoregion": "Sudoeste Amazonense",
    "region": "Norte",
    "latitude": -5.168819672131147,
    "longitude": -67.32689426229508
  },
  {
    "id": "1301100",
    "name": "Careiro",
    "state": "AM",
    "state_name": "Amazonas",
    "microregion": "Manaus",
    "mesoregion": "Centro Amazonense",
    "region": "Norte",
    "latitude": -3.777425806451613,
    "longitude": -60.20575161290323
  },
  {
    "id": "1301159",
    "name": "Careiro da Várzea",
    "state": "AM",
    "state_name": "Amazonas",
    "microregion": "Manaus",
    "mesoregion": "Centro Amazonense",
    "region": "Norte",
    "latitude": -3.325411111111111,
    "longitude": -59.67707333333333
  },
  {
    "id": "1301209",
    "name": "Coari",
    "state": "AM",
    "state_name": "Amazonas",
    "microregion": "Coari",
    "mesoregion": "Centro Amazonense",
    "region": "Norte",
    "latitude": -4.164688617886179,
    "longitude": -64.18125040650406
  },
  {
    "id": "1301308",
    "name": "Codajás",
    "state": "AM",
    "state_name": "Amazonas",
    "microregion": "Coari",
    "mesoregion": "Centro Amazonense",
    "region": "Norte",
    "latitude": -3.177089361702128,
    "longitude": -63.09450425531915
  },
  {
    "id": "1301407",
    "name": "Eirunepé",
    "state": "AM",
    "state_name": "Amazonas",
    "microregion": "Juruá",
    "mesoregion": "Sudoeste Amazonense",
    "region": "Norte",
    "latitude": -7.0362242718446595,
    "longitude": -70.33102427184467
  },
  {
    "id": "1301506",
    "name": "Envira",
    "state": "AM",
    "state_name": "Amazonas",
    "microregion": "Juruá",
    "mesoregion": "Sudoeste Amazonense",
    "region": "Norte",
    "latitude": -7.536382456140351,
    "longitude": -70.0535754385965
  },
  {
    "id": "1301605",
    "name": "Fonte Boa",
    "state": "AM",
    "state_name": "Amazonas",
    "microregion": "Alto Solimões",
    "mesoregion": "Sudoeste Amazonense",
    "region": "Norte",
    "latitude": -2.48021975308642,
    "longitude": -66.26250061728396
  },
  {
    "id": "1301654",
    "name": "Guajará",
    "state": "AM",
    "state_name": "Amazonas",
    "microregion": "Juruá",
    "mesoregion": "Sudoeste Amazonense",
    "region": "Norte",
    "latitude": -7.1162074074074075,
    "longitude": -72.77604814814815
  },
  {
    "id": "1301704",
    "name": "Humaitá",
    "state": "AM",
    "state_name": "Amazonas",
    "microregion": "Madeira",
    "mesoregion": "Sul Amazonense",
    "region": "Norte",
    "latitude": -7.432184431137725,
    "longitude": -62.35637784431138
  }
]